{"type":"FeatureCollection","features":[{"type":"Feature","properties":{"PROVIDER":"Toronto Police Services","FULL_ADDRE":"5230 FINCH AVE W","LABEL":"23 Division","P_Code":"M9V 0A1","NAME":"23 Division","ADDRESS":"5230 FINCH AVE W"},"geometry":{"type":"Point","coordinates":[-79.58352132391241,43.74386847242995]}},{"type":"Feature","properties":{"PROVIDER":"Toronto Police Services","FULL_ADDRE":"9 HANNA AVE","LABEL":"Traffic Services","P_Code":"M6K 1W8","NAME":"Traffic Services","ADDRESS":"9 HANNA AVE"},"geometry":{"type":"Point","coordinates":[-79.41722217851601,43.63763262187301]}},{"type":"Feature","properties":{"PROVIDER":"Toronto Police Services","FULL_ADDRE":"4331 LAWRENCE AVE E","LABEL":"43 Division","P_Code":"M1E 2T4","NAME":"43 Division","ADDRESS":"4331 LAWRENCE AVE E"},"geometry":{"type":"Point","coordinates":[-79.17405702155928,43.77083736806715]}},{"type":"Feature","properties":{"PROVIDER":"Toronto Police Services","FULL_ADDRE":"15 NOVA SCOTIA AVE","LABEL":"Mounted Unit","P_Code":"M6K 3C3","NAME":"Mounted Unit","ADDRESS":"15 NOVA SCOTIA AVE"},"geometry":{"type":"Point","coordinates":[-79.41765356600213,43.63501919702744]}},{"type":"Feature","properties":{"PROVIDER":"Toronto Police Services","FULL_ADDRE":"70 BIRMINGHAM ST","LABEL":"Police College","P_Code":"M8V 3W6","NAME":"Police College","ADDRESS":"70 BIRMINGHAM ST"},"geometry":{"type":"Point","coordinates":[-79.50348215949136,43.605086343128086]}},{"type":"Feature","properties":{"PROVIDER":"Toronto Police Services","FULL_ADDRE":"275 MANITOBA DR","LABEL":"14 Division Substation","P_Code":"M6K 3C3","NAME":"14 Division Substation","ADDRESS":"275 MANITOBA DR"},"geometry":{"type":"Point","coordinates":[-79.42130744492965,43.63389563108687]}},{"type":"Feature","properties":{"PROVIDER":"Toronto Police Services","FULL_ADDRE":"70 BIRMINGHAM ST","LABEL":"22 Division Substation","P_Code":"M8V 3W6","NAME":"22 Division Substation","ADDRESS":"70 BIRMINGHAM ST"},"geometry":{"type":"Point","coordinates":[-79.50348215949136,43.605086343128086]}},{"type":"Feature","properties":{"PROVIDER":"Toronto Police Services","FULL_ADDRE":"200 TRETHEWEY DR","LABEL":"12 Division","P_Code":"M6M 5E6","NAME":"12 Division","ADDRESS":"200 TRETHEWEY DR"},"geometry":{"type":"Point","coordinates":[-79.48678897651234,43.69478159834382]}},{"type":"Feature","properties":{"PROVIDER":"Toronto Police Services","FULL_ADDRE":"1435 EGLINTON AVE W","LABEL":"13 Division","P_Code":"M6C 3Z4","NAME":"13 Division","ADDRESS":"1435 EGLINTON AVE W"},"geometry":{"type":"Point","coordinates":[-79.4366828581769,43.69832956013731]}},{"type":"Feature","properties":{"PROVIDER":"Toronto Police Services","FULL_ADDRE":"150 HARRISON ST","LABEL":"14 Division","P_Code":"M6J 2A4","NAME":"14 Division","ADDRESS":"150 HARRISON ST"},"geometry":{"type":"Point","coordinates":[-79.42493348350276,43.65063459815668]}},{"type":"Feature","properties":{"PROVIDER":"Toronto Police Services","FULL_ADDRE":"3699 BLOOR ST W","LABEL":"22 Division","P_Code":"M9A 1A2","NAME":"22 Division","ADDRESS":"3699 BLOOR ST W"},"geometry":{"type":"Point","coordinates":[-79.52918485301421,43.64310937375079]}},{"type":"Feature","properties":{"PROVIDER":"Toronto Police Services","FULL_ADDRE":"40 NORFINCH DR","LABEL":"31 Division","P_Code":"M3N 1X1","NAME":"31 Division","ADDRESS":"40 NORFINCH DR"},"geometry":{"type":"Point","coordinates":[-79.52747348394952,43.7567531960728]}},{"type":"Feature","properties":{"PROVIDER":"Toronto Police Services","FULL_ADDRE":"30 ELLERSLIE AVE","LABEL":"32 Division","P_Code":"M2N 1X8","NAME":"32 Division","ADDRESS":"30 ELLERSLIE AVE"},"geometry":{"type":"Point","coordinates":[-79.41484297313205,43.77183574481213]}},{"type":"Feature","properties":{"PROVIDER":"Toronto Police Services","FULL_ADDRE":"50 UPJOHN RD","LABEL":"33 Division","P_Code":"M3B 2W1","NAME":"33 Division","ADDRESS":"50 UPJOHN RD"},"geometry":{"type":"Point","coordinates":[-79.34956340804605,43.75093757931325]}},{"type":"Feature","properties":{"PROVIDER":"Toronto Police Services","FULL_ADDRE":"2222 EGLINTON AVE E","LABEL":"41 Division","P_Code":"M1K 2M2","NAME":"41 Division","ADDRESS":"2222 EGLINTON AVE E"},"geometry":{"type":"Point","coordinates":[-79.27711031333267,43.73080784484407]}},{"type":"Feature","properties":{"PROVIDER":"Toronto Police Services","FULL_ADDRE":"242 MILNER AVE","LABEL":"42 Division","P_Code":"M1S 5C4","NAME":"42 Division","ADDRESS":"242 MILNER AVE"},"geometry":{"type":"Point","coordinates":[-79.24001239130364,43.78937600425622]}},{"type":"Feature","properties":{"PROVIDER":"Toronto Police Services","FULL_ADDRE":"51 PARLIAMENT ST","LABEL":"51 Division","P_Code":"M5A 2Y5","NAME":"51 Division","ADDRESS":"51 PARLIAMENT ST"},"geometry":{"type":"Point","coordinates":[-79.36214245967736,43.651953504237056]}},{"type":"Feature","properties":{"PROVIDER":"Toronto Police Services","FULL_ADDRE":"255 DUNDAS ST W","LABEL":"52 Division","P_Code":"M5T 2W5","NAME":"52 Division","ADDRESS":"255 DUNDAS ST W"},"geometry":{"type":"Point","coordinates":[-79.38972822843445,43.654240716990195]}},{"type":"Feature","properties":{"PROVIDER":"Toronto Police Services","FULL_ADDRE":"75 EGLINTON AVE W","LABEL":"53 Division","P_Code":"M4R 2G9","NAME":"53 Division","ADDRESS":"75 EGLINTON AVE W"},"geometry":{"type":"Point","coordinates":[-79.400661337406,43.706062763178345]}},{"type":"Feature","properties":{"PROVIDER":"Toronto Police Services","FULL_ADDRE":"41 CRANFIELD RD","LABEL":"54 Division","P_Code":"M4B 3H6","NAME":"54 Division","ADDRESS":"41 CRANFIELD RD"},"geometry":{"type":"Point","coordinates":[-79.30948147397838,43.71461131573583]}},{"type":"Feature","properties":{"PROVIDER":"Toronto Police Services","FULL_ADDRE":"101 COXWELL AVE","LABEL":"55 Division","P_Code":"M4L 3B3","NAME":"55 Division","ADDRESS":"101 COXWELL AVE"},"geometry":{"type":"Point","coordinates":[-79.31729848542366,43.66918186270538]}},{"type":"Feature","properties":{"PROVIDER":"Toronto Police Services","FULL_ADDRE":"113 TORYORK DR","LABEL":"North Collision Reporting Centre","P_Code":"M9L 1X9","NAME":"North Collision Reporting Centre","ADDRESS":"113 TORYORK DR"},"geometry":{"type":"Point","coordinates":[-79.55153502085815,43.756411853351985]}},{"type":"Feature","properties":{"PROVIDER":"Toronto Police Services","FULL_ADDRE":"39 HOWDEN RD","LABEL":"East Collision Reporting Centre","P_Code":"M1R 3C7","NAME":"East Collision Reporting Centre","ADDRESS":"39 HOWDEN RD"},"geometry":{"type":"Point","coordinates":[-79.28823782036328,43.74955797051447]}},{"type":"Feature","properties":{"PROVIDER":"Toronto Police Services","FULL_ADDRE":"40 COLLEGE ST","LABEL":"Headquarters","P_Code":"M5G 2J3","NAME":"Headquarters","ADDRESS":"40 COLLEGE ST"},"geometry":{"type":"Point","coordinates":[-79.38514230351942,43.661359885166426]}},{"type":"Feature","properties":{"PROVIDER":"Toronto Police Services","FULL_ADDRE":"1500 DON MILLS RD","LABEL":"Parking East","P_Code":"M3B 3K4","NAME":"Parking East","ADDRESS":"1500 DON MILLS RD"},"geometry":{"type":"Point","coordinates":[-79.34790908308987,43.754958859765885]}},{"type":"Feature","properties":{"PROVIDER":"Toronto Police Services","FULL_ADDRE":"970 LAWRENCE AVE W","LABEL":"Parking West","P_Code":"M6A 3B6","NAME":"Parking West","ADDRESS":"970 LAWRENCE AVE W"},"geometry":{"type":"Point","coordinates":[-79.45829229083881,43.71376325747265]}},{"type":"Feature","properties":{"PROVIDER":"Toronto Police Services","FULL_ADDRE":"799 ISLINGTON AVE","LABEL":"Property & Evidence Management","P_Code":"M2Z 5W8","NAME":"Property & Evidence Management","ADDRESS":"799 ISLINGTON AVE"},"geometry":{"type":"Point","coordinates":[-79.51049627789064,43.61759969422875]}},{"type":"Feature","properties":{"PROVIDER":"Toronto Police Services","FULL_ADDRE":"259 QUEENS QUAY W","LABEL":"Marine Unit","P_Code":"M5V 1A2","NAME":"Marine Unit","ADDRESS":"259 QUEENS QUAY W"},"geometry":{"type":"Point","coordinates":[-79.38587288786489,43.6378707533193]}},{"type":"Feature","properties":{"PROVIDER":"Toronto Police Services","FULL_ADDRE":"209 MAVETY ST","LABEL":"11 Division","P_Code":"M6P 2M1","NAME":"11 Division","ADDRESS":"209 MAVETY ST"},"geometry":{"type":"Point","coordinates":[-79.46516876464726,43.66460539793085]}}]}
